MessageType,Provider,LatitudeDegrees,LongitudeDegrees,AltitudeMeters,SpeedMps,AccuracyMeters,BearingDegrees,UnixTimeMillis
Fix,GT,37.4166186,-122.082065,,0.002044282,0.1,92.96875,1589573679445
Fix,GT,37.4166186,-122.082065,,0.0021983588,0.1,92.969666,1589573680445
Fix,GT,37.4166186,-122.082065,,0.0014142136,0.1,92.96985,1589573681445
Fix,GT,37.4166186,-122.082065,,0.0014142136,0.1,92.96985,1589573682445
Fix,GT,37.4166186,-122.082065,,0.0014142136,0.1,92.96991,1589573683445
Fix,GT,37.4166186,-122.082065,,0.0017803707,0.1,92.96988,1589573684445
Fix,GT,37.4166186,-122.082065,,0.001685368,0.1,92.96982,1589573685445
Fix,GT,37.4166186,-122.082065,,0.00055447436,0.1,92.96948,1589573686445
Fix,GT,37.4166186,-122.082065,,0.0006300683,0.1,92.96912,1589573687445
Fix,GT,37.4166186,-122.082065,,0.0014142136,0.1,92.96896,1589573688445
Fix,GT,37.4166186,-122.082065,,0.0014142136,0.1,92.96918,1589573689445
Fix,GT,37.4166186,-122.082065,,0.0016751965,0.1,92.96918,1589573690445
Fix,GT,37.4166186,-122.082065,,0.0015544744,0.1,92.96893,1589573691445
Fix,GT,37.4166186,-122.082065,,0.001,0.1,92.96918,1589573692445
Fix,GT,37.4166186,-122.082065,,0.0015506999,0.1,92.969055,1589573693445
Fix,GT,37.4166186,-122.082065,,0.0018699109,0.1,92.969055,1589573694445
Fix,GT,37.4166186,-122.082065,,0.0012296708,0.1,92.96878,1589573695445
Fix,GT,37.4166186,-122.082065,,0.001,0.1,92.96863,1589573696445
Fix,GT,37.4166186,-122.082065,,0.0015506999,0.1,92.96893,1589573697445
Fix,GT,37.4166186,-122.082065,,0.0030767915,0.1,92.96835,1589573698445
Fix,GT,37.4166186,-122.082065,,0.0022861569,0.1,92.96655,1589573699445
Fix,GT,37.4166186,-122.082065,,0.0029886763,0.1,92.96597,1589573700445
Fix,GT,37.4166186,-122.082065,,0.004349596,0.1,92.966675,1589573701445
Fix,GT,37.4166186,-122.082065,,0.0007841453,0.1,92.96753,1589573702445
Fix,GT,37.4166186,-122.082065,,0.00063006824,0.1,92.96887,1589573703445
Fix,GT,37.4166186,-122.082065,,0.0012296708,0.1,92.96939,1589573704445
Fix,GT,37.4166186,-122.082065,,0.001,0.1,92.96976,1589573705445
Fix,GT,37.4166186,-122.082065,,0.0005544745,0.1,92.96942,1589573706445
Fix,GT,37.4166186,-122.082065,,0.00044552554,0.1,92.96875,1589573707445
Fix,GT,37.4166186,-122.082065,,0.001,0.1,92.96869,1589573708445
Fix,GT,37.4166186,-122.082065,,0.0014455256,0.1,92.96826,1589573709445
Fix,GT,37.4166186,-122.082065,,0.0024455255,0.1,92.96802,1589573710445
Fix,GT,37.4166186,-122.082065,,0.0022934917,0.1,92.96735,1589573711445
Fix,GT,37.4166186,-122.082065,,0.0012296708,0.1,92.966675,1589573712445
Fix,GT,37.4166186,-122.082065,,0.0009999999,0.1,92.96643,1589573713445
Fix,GT,37.4166186,-122.082065,,0.0011845427,0.1,92.96631,1589573714445
Fix,GT,37.4166186,-122.082065,,0.0017803706,0.1,92.966156,1589573715445
Fix,GT,37.4166186,-122.082065,,0.002648718,0.1,92.96591,1589573716445
Fix,GT,37.4166186,-122.082065,,0.0033597671,0.1,92.96579,1589573717445
Fix,GT,37.4166186,-122.082065,,0.0029954114,0.1,92.96582,1589573718445
Fix,GT,37.4166186,-122.082065,,0.0022360678,0.1,92.96387,1589573719445
Fix,GT,37.4166186,-122.082065,,0.0031300471,0.1,92.96231,1589573720445
Fix,GT,37.4166186,-122.082065,,0.002982504,0.1,92.96329,1589573721445
Fix,GT,37.4166186,-122.082065,,0.0017803706,0.1,92.96338,1589573722445
Fix,GT,37.4166186,-122.082065,,0.0016853682,0.1,92.964294,1589573723445
Fix,GT,37.4166186,-122.082065,,0.0009999999,0.1,92.96408,1589573724445
Fix,GT,37.4166186,-122.082065,,0.0014455256,0.1,92.9635,1589573725445
Fix,GT,37.4166186,-122.082065,,0.0015544745,0.1,92.96405,1589573726445
Fix,GT,37.4166186,-122.082065,,0.0015506998,0.1,92.96399,1589573727445
Fix,GT,37.4166186,-122.082065,,0.0022360678,0.1,92.96396,1589573728445
Fix,GT,37.4166186,-122.082065,,0.0021308935,0.1,92.96365,1589573729445
Fix,GT,37.4166186,-122.082065,,0.0015544745,0.1,92.963715,1589573730445
Fix,GT,37.4166186,-122.082065,,0.0009999999,0.1,92.96387,1589573731445
Fix,GT,37.4166186,-122.082065,,0.0005544745,0.1,92.963745,1589573732445
Fix,GT,37.4166186,-122.082065,,0.0006300682,0.1,92.96362,1589573733445
Fix,GT,37.4166186,-122.082065,,0.0007841453,0.1,92.963165,1589573734445
Fix,GT,37.4166186,-122.082065,,0.0006300682,0.1,92.96265,1589573735445
Fix,GT,37.4166186,-122.082065,,0.0014142136,0.1,92.96234,1589573736445
Fix,GT,37.4166186,-122.082065,,0.0012296708,0.1,92.96231,1589573737445
Fix,GT,37.4166186,-122.082065,,0.0011845427,0.1,92.96234,1589573738445
Fix,GT,37.4166186,-122.082065,,0.0012296708,0.1,92.96271,1589573739445
Fix,GT,37.4166186,-122.082065,,0.0011845427,0.1,92.96301,1589573740445
Fix,GT,37.4166186,-122.082065,,0.0014142136,0.1,92.96341,1589573741445
Fix,GT,37.4166186,-122.082065,,0.0017803706,0.1,92.96387,1589573742445
Fix,GT,37.4166186,-122.082065,,0.0022360678,0.1,92.96417,1589573743445
Fix,GT,37.4166186,-122.082065,,0.0018699109,0.1,92.964294,1589573744445
Fix,GT,37.4166186,-122.082065,,0.0020442817,0.1,92.964386,1589573745445
Fix,GT,37.4166186,-122.082065,,0.002013816,0.1,92.96387,1589573746445
Fix,GT,37.4166186,-122.082065,,0.0011845427,0.1,92.963745,1589573747445
Fix,GT,37.4166186,-122.082065,,0.0014142136,0.1,92.96478,1589573748445
Fix,GT,37.4166186,-122.082065,,0.0012296708,0.1,92.96521,1589573749445
Fix,GT,37.4166186,-122.082065,,0.0015506998,0.1,92.96509,1589573750445
Fix,GT,37.4166186,-122.082065,,0.0022360678,0.1,92.96472,1589573751445
Fix,GT,37.4166186,-122.082065,,0.002236068,0.1,92.96454,1589573752445
Fix,GT,37.4166186,-122.082065,,0.002236068,0.1,92.96484,1589573753445
Fix,GT,37.4166186,-122.082065,,0.0025764192,0.1,92.96454,1589573754445
Fix,GT,37.4166186,-122.082065,,0.002659649,0.1,92.963715,1589573755445
Fix,GT,37.4166186,-122.082065,,0.002648718,0.1,92.964294,1589573756445
Fix,GT,37.4166186,-122.082065,,0.0030899788,0.1,92.96475,1589573757445
Fix,GT,37.4166186,-122.082065,,0.0032697886,0.1,92.96472,1589573758445
Fix,GT,37.4166186,-122.082065,,0.0026292545,0.1,92.96524,1589573759445
Fix,GT,37.4166186,-122.082065,,0.0021207219,0.1,92.96533,1589573760445
Fix,GT,37.4166186,-122.082065,,0.0025544746,0.1,92.9671,1589573761445
Fix,GT,37.4166186,-122.082065,,0.0017390172,0.1,92.96954,1589573762445
Fix,GT,37.4166186,-122.082065,,0.0017803707,0.1,92.96912,1589573763445
Fix,GT,37.4166186,-122.082065,,0.0016853682,0.1,92.96881,1589573764445
Fix,GT,37.4166186,-122.082065,,0.0014455256,0.1,92.96875,1589573765445
Fix,GT,37.4166186,-122.082065,,0.002,0.1,92.96893,1589573766445
Fix,GT,37.4166186,-122.082065,,0.002,0.1,92.96924,1589573767445
Fix,GT,37.4166186,-122.082065,,0.0015544746,0.1,92.969666,1589573768445
Fix,GT,37.4166186,-122.082065,,0.0011845427,0.1,92.96976,1589573769445
Fix,GT,37.4166186,-122.082065,,0.0017803707,0.1,92.96997,1589573770445
Fix,GT,37.4166186,-122.082065,,0.0016853681,0.1,92.96979,1589573771445
Fix,GT,37.4166186,-122.082065,,0.0015506998,0.1,92.969666,1589573772445
Fix,GT,37.4166186,-122.082065,,0.0016853682,0.1,92.96985,1589573773445
Fix,GT,37.4166186,-122.082065,,0.001,0.1,92.96979,1589573774445
Fix,GT,37.4166186,-122.082065,,0.001,0.1,92.96979,1589573775445
Fix,GT,37.4166186,-122.082065,,0.001,0.1,92.969696,1589573776445
Fix,GT,37.4166186,-122.082065,,0.0015506998,0.1,92.96985,1589573777445
Fix,GT,37.4166186,-122.082065,,0.002648718,0.1,92.96997,1589573778445
Fix,GT,37.4166186,-122.082065,,0.0030135387,0.1,92.97003,1589573779445
Fix,GT,37.4166186,-122.082065,,0.002564516,0.1,92.970184,1589573780445
Fix,GT,37.4166186,-122.082065,,0.0025764192,0.1,92.97031,1589573781445
Fix,GT,37.4166186,-122.082065,,0.003,0.1,92.97012,1589573782445
Fix,GT,37.4166186,-122.082065,,0.0022934917,0.1,92.96997,1589573783445
Fix,GT,37.4166186,-122.082065,,0.0007841454,0.1,92.97003,1589573784445
Fix,GT,37.4166186,-122.082065,,0.00044552548,0.1,92.96976,1589573785445
Fix,GT,37.4166186,-122.082065,,0.001,0.1,92.96988,1589573786445
Fix,GT,37.4166186,-122.082065,,0.0009999999,0.1,92.970245,1589573787445
Fix,GT,37.4166186,-122.082065,,0.0011845427,0.1,92.97034,1589573788445
Fix,GT,37.4166186,-122.082065,,0.0012296708,0.1,92.97037,1589573789445
Fix,GT,37.4166186,-122.082065,,0.0018146108,0.1,92.97034,1589573790445
Fix,GT,37.4166186,-122.082065,,0.0021983588,0.1,92.970215,1589573791445
Fix,GT,37.4166186,-122.082065,,0.0016751963,0.1,92.96997,1589573792445
Fix,GT,37.4166186,-122.082065,,0.0019999999,0.1,92.969604,1589573793445
Fix,GT,37.4166186,-122.082065,,0.0019999999,0.1,92.9693,1589573794445
Fix,GT,37.4166186,-122.082065,,0.0021051741,0.1,92.969086,1589573795445
Fix,GT,37.4166186,-122.082065,,0.0028462077,0.1,92.968994,1589573796445
Fix,GT,37.4166186,-122.082065,,0.0028902371,0.1,92.96942,1589573797445
Fix,GT,37.4166186,-122.082065,,0.0019999999,0.1,92.96951,1589573798445
Fix,GT,37.4166186,-122.082065,,0.0025178243,0.1,92.96942,1589573799445
Fix,GT,37.4166186,-122.082065,,0.0021989276,0.1,92.969666,1589573800445
Fix,GT,37.4166186,-122.082065,,0.0005544745,0.1,92.96991,1589573801445
Fix,GT,37.4166186,-122.082065,,0.0004455255,0.1,92.97,1589573802445
Fix,GT,37.4166186,-122.082065,,0.0015506998,0.1,92.97003,1589573803445
Fix,GT,37.4166186,-122.082065,,0.0018699109,0.1,92.96997,1589573804445
Fix,GT,37.4166186,-122.082065,,0.0017803707,0.1,92.969574,1589573805445
Fix,GT,37.4166186,-122.082065,,0.002648718,0.1,92.9693,1589573806445
Fix,GT,37.4166186,-122.082065,,0.0027496277,0.1,92.96936,1589573807445
Fix,GT,37.4166186,-122.082065,,0.00346747,0.1,92.96951,1589573808445
Fix,GT,37.4166186,-122.082065,,0.005590123,0.1,92.96942,1589573809445
Fix,GT,37.4166186,-122.082065,,0.006750279,0.1,92.96945,1589573810445
Fix,GT,37.4166186,-122.082065,,0.005296772,0.1,92.96976,1589573811445
Fix,GT,37.4166186,-122.082065,,0.003795918,0.1,92.97003,1589573812445
Fix,GT,37.4166186,-122.082065,,0.0034024408,0.1,92.970245,1589573813445
Fix,GT,37.4166186,-122.082065,,0.0007841454,0.1,92.97055,1589573814445
Fix,GT,37.4166186,-122.082065,,0.0031186785,0.1,92.97034,1589573815445
Fix,GT,37.4166186,-122.082065,,0.0047723725,0.1,92.969574,1589573816445
Fix,GT,37.4166186,-122.082065,,0.0042592897,0.1,92.968994,1589573817445
Fix,GT,37.4166186,-122.082065,,0.0057576755,0.1,92.96933,1589573818445
Fix,GT,37.4166186,-122.082065,,0.0063205617,0.1,92.96936,1589573819445
Fix,GT,37.4166186,-122.082065,,0.008171322,0.1,92.96927,1589573820445
Fix,GT,37.4166186,-122.082065,,0.008028269,0.1,92.97,1589573821445
Fix,GT,37.4166186,-122.082065,,0.0077851554,0.1,92.96954,1589573822445
Fix,GT,37.4166186,-122.082065,,0.006036873,0.1,92.96927,1589573823445
Fix,GT,37.4166186,-122.082065,,0.0065230774,0.1,92.96973,1589573824445
Fix,GT,37.4166186,-122.082065,,0.0045507955,0.1,92.969696,1589573825445
Fix,GT,37.4166186,-122.082065,,0.0021930207,0.1,92.97043,1589573826445
Fix,GT,37.4166186,-122.082065,,0.0023834708,0.1,92.97061,1589573827445
Fix,GT,37.4166186,-122.082065,,0.0021207219,0.1,92.97031,1589573828445
Fix,GT,37.4166186,-122.082065,,0.003072299,0.1,92.97049,1589573829445
Fix,GT,37.4166186,-122.082065,,0.003013539,0.1,92.970184,1589573830445
Fix,GT,37.4166186,-122.082065,,0.0028284271,0.1,92.96994,1589573831445
Fix,GT,37.4166186,-122.082065,,0.002459342,0.1,92.96973,1589573832445
Fix,GT,37.4166186,-122.082065,,0.0017390173,0.1,92.96942,1589573833445
Fix,GT,37.4166186,-122.082065,,0.0014142136,0.1,92.969666,1589573834445
Fix,GT,37.4166186,-122.082065,,0.0020442817,0.1,92.96997,1589573835445
Fix,GT,37.4166186,-122.082065,,0.0025645162,0.1,92.970245,1589573836445
Fix,GT,37.4166186,-122.082065,,0.0018699109,0.1,92.97015,1589573837445
Fix,GT,37.4166186,-122.082065,,0.0017803707,0.1,92.96988,1589573838445
Fix,GT,37.4166186,-122.082065,,0.0016853682,0.1,92.97046,1589573839445
Fix,GT,37.4166186,-122.082065,,0.001,0.1,92.971375,1589573840445
Fix,GT,37.4166186,-122.082065,,0.001,0.1,92.97128,1589573841445
Fix,GT,37.4166186,-122.082065,,0.001,0.1,92.97064,1589573842445
Fix,GT,37.4166186,-122.082065,,0.0014455253,0.1,92.97012,1589573843445
Fix,GT,37.4166186,-122.082065,,0.0021051741,0.1,92.96997,1589573844445
Fix,GT,37.4166186,-122.082065,,0.0021308935,0.1,92.969604,1589573845445
Fix,GT,37.4166186,-122.082065,,0.0017390172,0.1,92.96921,1589573846445
Fix,GT,37.4166186,-122.082065,,0.0014142136,0.1,92.96945,1589573847445
Fix,GT,37.4166186,-122.082065,,0.0021207216,0.1,92.96945,1589573848445
Fix,GT,37.4166186,-122.082065,,0.0032697883,0.1,92.96933,1589573849445
Fix,GT,37.4166186,-122.082065,,0.0034080618,0.1,92.96933,1589573850445
Fix,GT,37.4166186,-122.082065,,0.0031622776,0.1,92.969025,1589573851445
Fix,GT,37.4166186,-122.082065,,0.0026444534,0.1,92.96912,1589573852445
Fix,GT,37.4166186,-122.082065,,0.0017390173,0.1,92.96936,1589573853445
Fix,GT,37.4166186,-122.082065,,0.0017803705,0.1,92.96933,1589573854445
Fix,GT,37.4166186,-122.082065,,0.0016853685,0.1,92.96918,1589573855445
Fix,GT,37.4166186,-122.082065,,0.00055447465,0.1,92.968994,1589573856445
Fix,GT,37.4166186,-122.082065,,0.000630068,0.1,92.96893,1589573857445
Fix,GT,37.4166186,-122.082065,,0.0012296711,0.1,92.96872,1589573858445
Fix,GT,37.4166186,-122.082065,,0.002160839,0.1,92.96869,1589573859445
Fix,GT,37.4166186,-122.082065,,0.0028902376,0.1,92.96875,1589573860445
Fix,GT,37.4166186,-122.082065,,0.0017390174,0.1,92.96881,1589573861445
Fix,GT,37.4166186,-122.082065,,0.0017803706,0.1,92.96878,1589573862445
Fix,GT,37.4166186,-122.082065,,0.0022360682,0.1,92.968445,1589573863445
Fix,GT,37.4166186,-122.082065,,0.0012398432,0.1,92.96814,1589573864445
Fix,GT,37.4166186,-122.082065,,0.0006300679,0.1,92.96817,1589573865445
Fix,GT,37.4166186,-122.082065,,0.0017803705,0.1,92.96838,1589573866445
Fix,GT,37.4166186,-122.082065,,0.0016853685,0.1,92.968994,1589573867445
Fix,GT,37.4166186,-122.082065,,0.0005544747,0.1,92.96936,1589573868445
Fix,GT,37.4166186,-122.082065,,0.0004455253,0.1,92.96933,1589573869445
Fix,GT,37.4166186,-122.082065,,0.0005544747,0.1,92.96933,1589573870445
Fix,GT,37.4166186,-122.082065,,0.0008910506,0.1,92.96918,1589573871445
Fix,GT,37.4166186,-122.082065,,0.0017390173,0.1,92.96887,1589573872445
Fix,GT,37.4166186,-122.082065,,0.0014142136,0.1,92.96869,1589573873445
Fix,GT,37.4166186,-122.082065,,0.0021930202,0.1,92.96896,1589573874445
Fix,GT,37.4166186,-122.082065,,0.0039810296,0.1,92.97125,1589573875445
Fix,GT,37.4166186,-122.082065,,0.004181248,0.1,92.97229,1589573876445
Fix,GT,37.4166186,-122.082065,,0.004025145,0.1,92.96915,1589573877445
Fix,GT,37.4166186,-122.082065,,0.0038235022,0.1,92.96814,1589573878445
Fix,GT,37.4166186,-122.082065,,0.0026487177,0.1,92.96973,1589573879445
Fix,GT,37.4166186,-122.082065,,0.0026444537,0.1,92.97043,1589573880445
Fix,GT,37.4166186,-122.082065,,0.0017390172,0.1,92.970215,1589573881445
Fix,GT,37.4166186,-122.082065,,0.001229671,0.1,92.96945,1589573882445
Fix,GT,37.4166186,-122.082065,,0.0009999999,0.1,92.96948,1589573883445
Fix,GT,37.4166186,-122.082065,,0.0011845425,0.1,92.969574,1589573884445
Fix,GT,37.4166186,-122.082065,,0.0014142136,0.1,92.96942,1589573885445
Fix,GT,37.4166186,-122.082065,,0.0017803705,0.1,92.96936,1589573886445
Fix,GT,37.4166186,-122.082065,,0.0018699111,0.1,92.96921,1589573887445
Fix,GT,37.4166186,-122.082065,,0.001229671,0.1,92.96939,1589573888445
Fix,GT,37.4166186,-122.082065,,0.0011845425,0.1,92.96945,1589573889445
Fix,GT,37.4166186,-122.082065,,0.0017803705,0.1,92.96893,1589573890445
Fix,GT,37.4166186,-122.082065,,0.0026487177,0.1,92.96854,1589573891445
Fix,GT,37.4166186,-122.082065,,0.0030899788,0.1,92.96835,1589573892445
Fix,GT,37.4166186,-122.082065,,0.0025544749,0.1,92.968475,1589573893445
Fix,GT,37.4166186,-122.082065,,0.0019999999,0.1,92.96869,1589573894445
Fix,GT,37.4166186,-122.082065,,0.0015544747,0.1,92.968445,1589573895445
Fix,GT,37.4166186,-122.082065,,0.0015506996,0.1,92.96677,1589573896445
Fix,GT,37.4166186,-122.082065,,0.0016853685,0.1,92.967255,1589573897445
Fix,GT,37.4166186,-122.082065,,0.0015506995,0.1,92.970215,1589573898445
Fix,GT,37.4166186,-122.082065,,0.002236068,0.1,92.96817,1589573899445
Fix,GT,37.4166186,-122.082065,,0.0012398433,0.1,92.96539,1589573900445
Fix,GT,37.4166186,-122.082065,,0.0,0.1,92.96655,1589573901445
Fix,GT,37.4166186,-122.082065,,0.00044552525,0.1,92.96704,1589573902445
Fix,GT,37.4166186,-122.082065,,0.00055447477,0.1,92.96506,1589573903445
Fix,GT,37.4166186,-122.082065,,0.0012601354,0.1,92.96509,1589573904445
Fix,GT,37.4166186,-122.082065,,0.0029771659,0.1,92.96536,1589573905445
Fix,GT,37.4166186,-122.082065,,0.002749628,0.1,92.9657,1589573906445
Fix,GT,37.4166186,-122.082065,,0.0032322926,0.1,92.96393,1589573907445
Fix,GT,37.4166186,-122.0820649,,0.0034759114,0.1,92.96152,1589573908445
Fix,GT,37.4166186,-122.0820649,,0.0028462075,0.1,92.96307,1589573909445
Fix,GT,37.4166186,-122.082065,,0.0036055516,0.1,92.96637,1589573910445
Fix,GT,37.4166186,-122.0820649,,0.0034080618,0.1,92.967896,1589573911445
Fix,GT,37.4166186,-122.0820649,,0.0017534033,0.1,92.966064,1589573912445
Fix,GT,37.4166186,-122.0820649,,0.0,0.1,92.96561,1589573913445
Fix,GT,37.4166186,-122.0820649,,0.0014088742,0.1,92.965546,1589573914445
Fix,GT,37.4166186,-122.0820649,,0.002383471,0.1,92.96704,1589573915445
Fix,GT,37.4166186,-122.0820649,,0.00078414584,0.1,92.96643,1589573916445
Fix,GT,37.4166186,-122.0820649,,0.00044552516,0.1,92.966675,1589573917445
Fix,GT,37.4166186,-122.0820649,,0.0021608388,0.1,92.96643,1589573918445
Fix,GT,37.4166186,-122.0820649,,0.0034080618,0.1,92.966064,1589573919445
Fix,GT,37.4166186,-122.0820649,,0.0037458525,0.1,92.96533,1589573920445
Fix,GT,37.4166186,-122.0820649,,0.0038885612,0.1,92.964966,1589573921445
Fix,GT,37.4166186,-122.0820649,,0.0023834712,0.1,92.96481,1589573922445
Fix,GT,37.4166186,-122.0820649,,0.0007841459,0.1,92.96448,1589573923445
Fix,GT,37.4166186,-122.0820649,,0.0009962245,0.1,92.963715,1589573924445
Fix,GT,37.4166186,-122.0820649,,0.0018699112,0.1,92.96326,1589573925445
Fix,GT,37.4166186,-122.0820649,,0.0017803704,0.1,92.963135,1589573926445
Fix,GT,37.4166186,-122.0820649,,0.0016853687,0.1,92.96234,1589573927445
Fix,GT,37.4166186,-122.0820649,,0.0015506994,0.1,92.96118,1589573928445
Fix,GT,37.4166186,-122.0820649,,0.0016853687,0.1,92.961365,1589573929445
Fix,GT,37.4166186,-122.0820649,,0.002391422,0.1,92.96185,1589573930445
Fix,GT,37.4166186,-122.0820649,,0.0031772088,0.1,92.9624,1589573931445
Fix,GT,37.4166186,-122.0820649,,0.0017390175,0.1,92.96307,1589573932445
Fix,GT,37.4166186,-122.0820649,,0.0014142136,0.1,92.96289,1589573933445
Fix,GT,37.4166186,-122.0820649,,0.0016751962,0.1,92.96323,1589573934445
Fix,GT,37.4166186,-122.0820649,,0.002517824,0.1,92.96234,1589573935445
Fix,GT,37.4166186,-122.0820649,,0.002749628,0.1,92.96283,1589573936445
Fix,GT,37.4166186,-122.0820649,,0.002130894,0.1,92.96283,1589573937445
Fix,GT,37.4166186,-122.0820649,,0.0020000003,0.1,92.96243,1589573938445
Fix,GT,37.4166186,-122.0820649,,0.0015544752,0.1,92.9621,1589573939445
Fix,GT,37.4166186,-122.0820649,,0.0010000002,0.1,92.9617,1589573940445
Fix,GT,37.4166186,-122.0820649,,0.0015506994,0.1,92.96179,1589573941445
Fix,GT,37.4166186,-122.0820649,,0.0028462072,0.1,92.96161,1589573942445
Fix,GT,37.4166186,-122.0820649,,0.0029954123,0.1,92.96225,1589573943445
Fix,GT,37.4166186,-122.0820649,,0.0016853687,0.1,92.96326,1589573944445
Fix,GT,37.4166186,-122.0820649,,0.0010000002,0.1,92.96332,1589573945445
Fix,GT,37.4166186,-122.0820649,,0.0011845425,0.1,92.96274,1589573946445
Fix,GT,37.4166186,-122.0820649,,0.0014142136,0.1,92.96265,1589573947445
Fix,GT,37.4166186,-122.0820649,,0.0014142136,0.1,92.963104,1589573948445
Fix,GT,37.4166186,-122.0820649,,0.002044281,0.1,92.96298,1589573949445
Fix,GT,37.4166186,-122.0820649,,0.0020138172,0.1,92.962555,1589573950445
Fix,GT,37.4166186,-122.0820649,,0.001,0.1,92.96216,1589573951445
Fix,GT,37.4166186,-122.0820649,,0.001,0.1,92.96268,1589573952445
Fix,GT,37.4166186,-122.0820649,,0.0015506994,0.1,92.963715,1589573953445
Fix,GT,37.4166186,-122.0820649,,0.0018699112,0.1,92.96332,1589573954445
Fix,GT,37.4166186,-122.0820649,,0.0012296711,0.1,92.962555,1589573955445
Fix,GT,37.4166186,-122.0820649,,0.001,0.1,92.96216,1589573956445
Fix,GT,37.4166186,-122.0820649,,0.0014455251,0.1,92.96222,1589573957445
Fix,GT,37.4166186,-122.0820649,,0.0017390175,0.1,92.962036,1589573958445
Fix,GT,37.4166186,-122.0820649,,0.0007841461,0.1,92.961975,1589573959445
Fix,GT,37.4166186,-122.0820649,,0.00044552502,0.1,92.961914,1589573960445
Fix,GT,37.4166186,-122.0820649,,0.0015506994,0.1,92.96185,1589573961445
Fix,GT,37.4166186,-122.0820649,,0.0021308938,0.1,92.96295,1589573962445
Fix,GT,37.4166186,-122.0820649,,0.002445525,0.1,92.96069,1589573963445
Fix,GT,37.4166187,-122.0820649,,0.0026596491,0.1,92.95581,1589573964445
Fix,GT,37.4166187,-122.0820649,,0.0024999788,0.1,92.95581,1589573965445
Fix,GT,37.4166187,-122.0820649,,0.0029771659,0.1,92.957794,1589573966445
Fix,GT,37.4166187,-122.0820649,,0.0023834715,0.1,92.95871,1589573967445
Fix,GT,37.4166187,-122.0820649,,0.0014142136,0.1,92.957794,1589573968445
Fix,GT,37.4166187,-122.0820649,,0.0012296711,0.1,92.956085,1589573969445
Fix,GT,37.4166187,-122.0820649,,0.0028262157,0.1,92.95389,1589573970445
Fix,GT,37.4166187,-122.0820649,,0.0046642255,0.1,92.955536,1589573971445
Fix,GT,37.4166187,-122.0820649,,0.0029162266,0.1,92.957184,1589573972445
Fix,GT,37.4166187,-122.082065,,0.0017803701,0.1,92.95624,1589573973445
Fix,GT,37.4166187,-122.082065,,0.001239844,0.1,92.95654,1589573974445
Fix,GT,37.4166187,-122.082065,,0.00044552496,0.1,92.9574,1589573975445
Fix,GT,37.4166187,-122.082065,,0.0015506991,0.1,92.95795,1589573976445
Fix,GT,37.4166187,-122.082065,,0.0026487175,0.1,92.957275,1589573977445
Fix,GT,37.4166187,-122.082065,,0.0027496282,0.1,92.95676,1589573978445
Fix,GT,37.4166187,-122.082065,,0.0026487175,0.1,92.95712,1589573979445
Fix,GT,37.4166187,-122.082065,,0.0026444541,0.1,92.95697,1589573980445
Fix,GT,37.4166187,-122.082065,,0.0017390177,0.1,92.95703,1589573981445
Fix,GT,37.4166187,-122.082065,,0.0012296712,0.1,92.95648,1589573982445
Fix,GT,37.4166187,-122.082065,,0.0015506991,0.1,92.95581,1589573983445
Fix,GT,37.4166187,-122.082065,,0.0026487175,0.1,92.955505,1589573984445
Fix,GT,37.4166187,-122.082065,,0.0021989292,0.1,92.95383,1589573985445
Fix,GT,37.4166187,-122.082065,,0.0015506991,0.1,92.95288,1589573986445
Fix,GT,37.4166187,-122.082065,,0.0012398441,0.1,92.95584,1589573987445
Fix,GT,37.4166187,-122.082065,,0.004107536,0.1,92.958374,1589573988445
Fix,GT,37.4166187,-122.082065,,0.005112008,0.1,92.9621,1589573989445
Fix,GT,37.4166187,-122.082065,,0.00089104974,0.1,92.9642,1589573990445
Fix,GT,37.4166187,-122.082065,,0.0017390177,0.1,92.96091,1589573991445
Fix,GT,37.4166187,-122.082065,,0.0012296712,0.1,92.95984,1589573992445
Fix,GT,37.4166187,-122.082065,,0.0018146097,0.1,92.95993,1589573993445
Fix,GT,37.4166187,-122.082065,,0.0031746551,0.1,92.9603,1589573994445
Fix,GT,37.4166187,-122.082065,,0.0029954126,0.1,92.96289,1589573995445
Fix,GT,37.4166187,-122.082065,,0.002130894,0.1,92.96112,1589573996445
Fix,GT,37.4166187,-122.082065,,0.0025178236,0.1,92.95532,1589573997445
Fix,GT,37.4166187,-122.082065,,0.0027496284,0.1,92.95279,1589573998445
Fix,GT,37.4166187,-122.082065,,0.002236068,0.1,92.95645,1589573999445
Fix,GT,37.4166187,-122.082065,,0.0016853691,0.1,92.95868,1589574000445
Fix,GT,37.4166187,-122.082065,,0.001550699,0.1,92.95853,1589574001445
Fix,GT,37.4166187,-122.082065,,0.002236068,0.1,92.95969,1589574002445
Fix,GT,37.4166187,-122.082065,,0.0016853691,0.1,92.960266,1589574003445
Fix,GT,37.4166187,-122.082065,,0.005205891,0.1,92.957184,1589574004445
Fix,GT,37.4166188,-122.082065,,0.0070490255,0.1,92.95386,1589574005445
Fix,GT,37.4166188,-122.082065,,0.0034052385,0.1,92.954865,1589574006445
Fix,GT,37.4166188,-122.082065,,0.0038925223,0.1,92.95465,1589574007445
Fix,GT,37.4166188,-122.082065,,0.0028902383,0.1,92.9534,1589574008445
Fix,GT,37.4166188,-122.082065,,0.002,0.1,92.95343,1589574009445
Fix,GT,37.4166188,-122.082065,,0.0024455248,0.1,92.953766,1589574010445
Fix,GT,37.4166188,-122.082065,,0.0026596494,0.1,92.95404,1589574011445
Fix,GT,37.4166188,-122.082065,,0.0028462068,0.1,92.953735,1589574012445
Fix,GT,37.4166188,-122.082065,,0.0028902385,0.1,92.95364,1589574013445
Fix,GT,37.4166188,-122.082065,,0.0021051741,0.1,92.953766,1589574014445
Fix,GT,37.4166188,-122.082065,,0.002236068,0.1,92.95453,1589574015445
Fix,GT,37.4166188,-122.082065,,0.0025764187,0.1,92.9552,1589574016445
Fix,GT,37.4166188,-122.082065,,0.00292356,0.1,92.95526,1589574017445
Fix,GT,37.4166188,-122.082065,,0.00356074,0.1,92.9556,1589574018445
Fix,GT,37.4166188,-122.082065,,0.004472136,0.1,92.95563,1589574019445
Fix,GT,37.4166188,-122.082065,,0.003816263,0.1,92.95526,1589574020445
Fix,GT,37.4166188,-122.082065,,0.0030722986,0.1,92.95444,1589574021445
Fix,GT,37.4166188,-122.082065,,0.002383472,0.1,92.95532,1589574022445
Fix,GT,37.4166188,-122.082065,,0.00178037,0.1,92.95801,1589574023445
Fix,GT,37.4166188,-122.0820651,,0.00307679,0.1,92.95917,1589574024445
Fix,GT,37.4166188,-122.082065,,0.0038925225,0.1,92.96045,1589574025445
Fix,GT,37.4166188,-122.082065,,0.0038361344,0.1,92.95984,1589574026445
Fix,GT,37.4166188,-122.082065,,0.0035462945,0.1,92.95624,1589574027445
Fix,GT,37.4166188,-122.082065,,0.0020138177,0.1,92.95358,1589574028445
Fix,GT,37.4166188,-122.082065,,0.00055447535,0.1,92.954895,1589574029445
Fix,GT,37.4166188,-122.082065,,0.0006300671,0.1,92.9574,1589574030445
Fix,GT,37.4166188,-122.082065,,0.0007841465,0.1,92.95743,1589574031445
Fix,GT,37.4166188,-122.082065,,0.0006300671,0.1,92.95654,1589574032445
Fix,GT,37.4166188,-122.082065,,0.00178037,0.1,92.95499,1589574033445
Fix,GT,37.4166188,-122.082065,,0.002236068,0.1,92.95416,1589574034445
Fix,GT,37.4166188,-122.082065,,0.0018699116,0.1,92.95422,1589574035445
Fix,GT,37.4166188,-122.082065,,0.0014142136,0.1,92.95422,1589574036445
Fix,GT,37.4166188,-122.082065,,0.00178037,0.1,92.95471,1589574037445
Fix,GT,37.4166188,-122.082065,,0.002236068,0.1,92.95068,1589574038445
Fix,GT,37.4166188,-122.082065,,0.002130894,0.1,92.94507,1589574039445
Fix,GT,37.4166188,-122.082065,,0.0015544754,0.1,92.94678,1589574040445
Fix,GT,37.4166188,-122.082065,,0.0014455249,0.1,92.94763,1589574041445
Fix,GT,37.4166188,-122.082065,,0.0025178236,0.1,92.94864,1589574042445
Fix,GT,37.4166188,-122.082065,,0.0031622774,0.1,92.9501,1589574043445
Fix,GT,37.4166188,-122.082065,,0.002383472,0.1,92.9494,1589574044445
Fix,GT,37.4166188,-122.082065,,0.0012296712,0.1,92.94754,1589574045445
Fix,GT,37.4166188,-122.082065,,0.0015506988,0.1,92.94638,1589574046445
Fix,GT,37.4166188,-122.082065,,0.0025764185,0.1,92.946045,1589574047445
Fix,GT,37.4166188,-122.082065,,0.0035003712,0.1,92.94632,1589574048445
Fix,GT,37.4166188,-122.082065,,0.003695033,0.1,92.9465,1589574049445
Fix,GT,37.4166188,-122.082065,,0.0026444544,0.1,92.94641,1589574050445
Fix,GT,37.4166188,-122.082065,,0.002,0.1,92.94635,1589574051445
Fix,GT,37.4166188,-122.082065,,0.0015544755,0.1,92.94708,1589574052445
Fix,GT,37.4166188,-122.082065,,0.0015506989,0.1,92.94696,1589574053445
Fix,GT,37.4166188,-122.082065,,0.0018699116,0.1,92.94617,1589574054445
Fix,GT,37.4166188,-122.082065,,0.001675196,0.1,92.946106,1589574055445
Fix,GT,37.4166188,-122.082065,,0.0011089508,0.1,92.94565,1589574056445
Fix,GT,37.4166188,-122.082065,,0.0014088725,0.1,92.94672,1589574057445
Fix,GT,37.4166188,-122.082065,,0.0027496284,0.1,92.947266,1589574058445
Fix,GT,37.4166188,-122.082065,,0.0018699116,0.1,92.94891,1589574059445
Fix,GT,37.4166188,-122.082065,,0.0012296713,0.1,92.95563,1589574060445
Fix,GT,37.4166188,-122.082065,,0.001,0.1,92.95416,1589574061445
Fix,GT,37.4166188,-122.082065,,0.0005544754,0.1,92.947205,1589574062445
Fix,GT,37.4166188,-122.082065,,0.00044552464,0.1,92.94589,1589574063445
Fix,GT,37.4166188,-122.082065,,0.0014455247,0.1,92.9433,1589574064445
Fix,GT,37.4166188,-122.082065,,0.0015544756,0.1,92.943054,1589574065445
Fix,GT,37.4166188,-122.082065,,0.0021608374,0.1,92.944336,1589574066445
Fix,GT,37.4166188,-122.082065,,0.0032593235,0.1,92.94418,1589574067445
Fix,GT,37.4166188,-122.082065,,0.0021983604,0.1,92.94354,1589574068445
Fix,GT,37.4166188,-122.082065,,0.0012296713,0.1,92.94345,1589574069445
Fix,GT,37.4166188,-122.082065,,0.0011845424,0.1,92.943146,1589574070445
Fix,GT,37.4166188,-122.082065,,0.0014142136,0.1,92.942444,1589574071445
Fix,GT,37.4166188,-122.082065,,0.001675196,0.1,92.94217,1589574072445
Fix,GT,37.4166188,-122.082065,,0.0015544756,0.1,92.94226,1589574073445
Fix,GT,37.4166188,-122.082065,,0.0010000002,0.1,92.9422,1589574074445
Fix,GT,37.4166188,-122.082065,,0.0014455247,0.1,92.941986,1589574075445
Fix,GT,37.4166188,-122.082065,,0.0021051741,0.1,92.941864,1589574076445
Fix,GT,37.4166188,-122.082065,,0.0016853693,0.1,92.94119,1589574077445
Fix,GT,37.4166188,-122.082065,,0.0011845424,0.1,92.93985,1589574078445
Fix,GT,37.4166188,-122.082065,,0.00178037,0.1,92.93945,1589574079445
Fix,GT,37.4166188,-122.082065,,0.002236068,0.1,92.93976,1589574080445
Fix,GT,37.4166188,-122.082065,,0.0018699117,0.1,92.94049,1589574081445
Fix,GT,37.4166188,-122.082065,,0.001675196,0.1,92.94104,1589574082445
Fix,GT,37.4166188,-122.082065,,0.0017390179,0.1,92.940796,1589574083445
Fix,GT,37.4166188,-122.082065,,0.0020442805,0.1,92.94104,1589574084445
Fix,GT,37.4166188,-122.082065,,0.0025645166,0.1,92.94095,1589574085445
Fix,GT,37.4166188,-122.082065,,0.0018699116,0.1,92.94107,1589574086445
Fix,GT,37.4166188,-122.082065,,0.0016751959,0.1,92.943665,1589574087445
Fix,GT,37.4166188,-122.082065,,0.0017390178,0.1,92.94556,1589574088445
Fix,GT,37.4166188,-122.082065,,0.0016751958,0.1,92.94476,1589574089445
Fix,GT,37.4166188,-122.082065,,0.0011089509,0.1,92.94061,1589574090445
Fix,GT,37.4166188,-122.082065,,0.0004455246,0.1,92.93347,1589574091445
Fix,GT,37.4166188,-122.082065,,0.0011845424,0.1,92.9314,1589574092445
Fix,GT,37.4166188,-122.082065,,0.0020442805,0.1,92.93115,1589574093445
Fix,GT,37.4166188,-122.082065,,0.0028284271,0.1,92.93103,1589574094445
Fix,GT,37.4166188,-122.082065,,0.0015682933,0.1,92.936554,1589574095445
Fix,GT,37.4166188,-122.082065,,0.0009962233,0.1,92.943054,1589574096445
Fix,GT,37.4166188,-122.082065,,0.0016853693,0.1,92.942444,1589574097445
Fix,GT,37.4166188,-122.082065,,0.0014455246,0.1,92.942474,1589574098445
Fix,GT,37.4166188,-122.082065,,0.0025178231,0.1,92.94202,1589574099445
Fix,GT,37.4166188,-122.082065,,0.0026444544,0.1,92.941345,1589574100445
Fix,GT,37.4166188,-122.082065,,0.0011089509,0.1,92.941345,1589574101445
Fix,GT,37.4166188,-122.082065,,0.00063006685,0.1,92.9411,1589574102445
Fix,GT,37.4166188,-122.082065,,0.0012296712,0.1,92.94049,1589574103445
Fix,GT,37.4166188,-122.082065,,0.001,0.1,92.93988,1589574104445
Fix,GT,37.4166188,-122.082065,,0.0014455246,0.1,92.93982,1589574105445
Fix,GT,37.4166188,-122.082065,,0.0015544755,0.1,92.93967,1589574106445
Fix,GT,37.4166188,-122.082065,,0.0011845423,0.1,92.93948,1589574107445
Fix,GT,37.4166188,-122.082065,,0.00078414666,0.1,92.93909,1589574108445
Fix,GT,37.4166188,-122.082065,,0.00044552455,0.1,92.938324,1589574109445
Fix,GT,37.4166188,-122.082065,,0.0019633477,0.1,92.93823,1589574110445
Fix,GT,37.4166188,-122.082065,,0.0030899788,0.1,92.93817,1589574111445
Fix,GT,37.4166188,-122.082065,,0.0021089509,0.1,92.93787,1589574112445
Fix,GT,37.4166188,-122.082065,,0.0011845423,0.1,92.93808,1589574113445
Fix,GT,37.4166188,-122.082065,,0.0014142136,0.1,92.938416,1589574114445
Fix,GT,37.4166188,-122.082065,,0.0012296712,0.1,92.93829,1589574115445
Fix,GT,37.4166188,-122.082065,,0.001,0.1,92.938354,1589574116445
Fix,GT,37.4166188,-122.082065,,0.0015506987,0.1,92.937744,1589574117445
Fix,GT,37.4166188,-122.082065,,0.0022360678,0.1,92.9371,1589574118445
Fix,GT,37.4166188,-122.082065,,0.0022360678,0.1,92.9375,1589574119445
Fix,GT,37.4166188,-122.082065,,0.0018699116,0.1,92.93799,1589574120445
Fix,GT,37.4166188,-122.082065,,0.002193019,0.1,92.93872,1589574121445
Fix,GT,37.4166188,-122.082065,,0.002383472,0.1,92.93948,1589574122445
Fix,GT,37.4166188,-122.082065,,0.0020442803,0.1,92.9375,1589574123445
Fix,GT,37.4166188,-122.082065,,0.0025645164,0.1,92.93506,1589574124445
Fix,GT,37.4166188,-122.082065,,0.0049137343,0.1,92.93439,1589574125445
Fix,GT,37.4166188,-122.082065,,0.0068440605,0.1,92.933136,1589574126445
Fix,GT,37.4166188,-122.082065,,0.0038235043,0.1,92.93338,1589574127445
Fix,GT,37.4166188,-122.082065,,0.002236068,0.1,92.93207,1589574128445
Fix,GT,37.4166188,-122.082065,,0.0016853695,0.1,92.93231,1589574129445
Fix,GT,37.4166188,-122.082065,,0.001,0.1,92.932434,1589574130445
Fix,GT,37.4166188,-122.082065,,0.0005544755,0.1,92.93268,1589574131445
Fix,GT,37.4166188,-122.082065,,0.0006300668,0.1,92.9328,1589574132445
Fix,GT,37.4166188,-122.082065,,0.0017803698,0.1,92.93274,1589574133445
Fix,GT,37.4166188,-122.082065,,0.001239845,0.1,92.93283,1589574134445
Fix,GT,37.4166188,-122.082065,,0.00089104904,0.1,92.93201,1589574135445
Fix,GT,37.4166188,-122.082065,,0.0015544756,0.1,92.931305,1589574136445
Fix,GT,37.4166188,-122.082065,,0.0015506987,0.1,92.93158,1589574137445
Fix,GT,37.4166188,-122.082065,,0.0026487173,0.1,92.931946,1589574138445
Fix,GT,37.4166188,-122.082065,,0.0026444546,0.1,92.931244,1589574139445
Fix,GT,37.4166188,-122.082065,,0.0027153124,0.1,92.9306,1589574140445
Fix,GT,37.4166188,-122.082065,,0.0038893903,0.1,92.93033,1589574141445
Fix,GT,37.4166188,-122.082065,,0.0041893846,0.1,92.93002,1589574142445
Fix,GT,37.4166188,-122.082065,,0.0031772102,0.1,92.92923,1589574143445
Fix,GT,37.4166188,-122.082065,,0.0021051741,0.1,92.929565,1589574144445
Fix,GT,37.4166188,-122.082065,,0.001239845,0.1,92.930084,1589574145445
Fix,GT,37.4166188,-122.082065,,0.00089104904,0.1,92.92914,1589574146445
Fix,GT,37.4166188,-122.082065,,0.0025178231,0.1,92.92944,1589574147445
Fix,GT,37.4166188,-122.082065,,0.0026444546,0.1,92.93176,1589574148445
Fix,GT,37.4166188,-122.082065,,0.0029458958,0.1,92.92871,1589574149445
Fix,GT,37.4166188,-122.082065,,0.004557899,0.1,92.92233,1589574150445
Fix,GT,37.4166188,-122.082065,,0.005054904,0.1,92.92355,1589574151445
Fix,GT,37.4166188,-122.082065,,0.0037686005,0.1,92.92352,1589574152445
Fix,GT,37.4166188,-122.082065,,0.0016853695,0.1,92.923645,1589574153445
Fix,GT,37.4166188,-122.082065,,0.0014455246,0.1,92.92279,1589574154445
Fix,GT,37.4166188,-122.082065,,0.0021051741,0.1,92.921936,1589574155445
Fix,GT,37.4166188,-122.082065,,0.002236068,0.1,92.920715,1589574156445
Fix,GT,37.4166188,-122.082065,,0.0018699118,0.1,92.92059,1589574157445
Fix,GT,37.4166188,-122.082065,,0.0016751958,0.1,92.92096,1589574158445
Fix,GT,37.4166188,-122.082065,,0.0025178231,0.1,92.920654,1589574159445
Fix,GT,37.4166188,-122.082065,,0.0027496289,0.1,92.92313,1589574160445
Fix,GT,37.4166188,-122.082065,,0.0018699118,0.1,92.92374,1589574161445
Fix,GT,37.4166188,-122.082065,,0.0012296713,0.1,92.92264,1589574162445
Fix,GT,37.4166188,-122.082065,,0.0011845424,0.1,92.92255,1589574163445
Fix,GT,37.4166188,-122.082065,,0.0016751958,0.1,92.921936,1589574164445
Fix,GT,37.4166188,-122.082065,,0.0021051741,0.1,92.92288,1589574165445
Fix,GT,37.4166188,-122.082065,,0.0016853695,0.1,92.92355,1589574166445
Fix,GT,37.4166188,-122.082065,,0.001,0.1,92.921936,1589574167445
Fix,GT,37.4166188,-122.082065,,0.001,0.1,92.92203,1589574168445
Fix,GT,37.4166188,-122.082065,,0.0005544756,0.1,92.92325,1589574169445
Fix,GT,37.4166188,-122.082065,,0.0006300667,0.1,92.924835,1589574170445
Fix,GT,37.4166188,-122.082065,,0.0014142136,0.1,92.926605,1589574171445
Fix,GT,37.4166188,-122.082065,,0.0016751958,0.1,92.92813,1589574172445
Fix,GT,37.4166188,-122.082065,,0.0017390179,0.1,92.92853,1589574173445
Fix,GT,37.4166188,-122.082065,,0.0017803698,0.1,92.928894,1589574174445
Fix,GT,37.4166188,-122.082065,,0.002648717,0.1,92.92856,1589574175445
Fix,GT,37.4166188,-122.082065,,0.0017534057,0.1,92.92813,1589574176445
Fix,GT,37.4166188,-122.082065,,0.00044552443,0.1,92.927734,1589574177445
Fix,GT,37.4166188,-122.082065,,0.0011845422,0.1,92.92905,1589574178445
Fix,GT,37.4166188,-122.082065,,0.0012296713,0.1,92.93024,1589574179445
Fix,GT,37.4166188,-122.082065,,0.0015506984,0.1,92.92908,1589574180445
Fix,GT,37.4166188,-122.082065,,0.002236068,0.1,92.92871,1589574181445
Fix,GT,37.4166188,-122.082065,,0.0016853695,0.1,92.92792,1589574182445
Fix,GT,37.4166188,-122.082065,,0.00055447564,0.1,92.92749,1589574183445
Fix,GT,37.4166188,-122.082065,,0.0009962228,0.1,92.927704,1589574184445
Fix,GT,37.4166188,-122.082065,,0.0016853696,0.1,92.92859,1589574185445
Fix,GT,37.4166188,-122.082065,,0.00055447564,0.1,92.92862,1589574186445
Fix,GT,37.4166188,-122.082065,,0.0,0.1,92.92822,1589574187445
Fix,GT,37.4166188,-122.082065,,0.00044552438,0.1,92.92767,1589574188445
Fix,GT,37.4166188,-122.082065,,0.0011845423,0.1,92.92676,1589574189445
Fix,GT,37.4166188,-122.082065,,0.0016751958,0.1,92.926544,1589574190445
Fix,GT,37.4166188,-122.082065,,0.0011089513,0.1,92.92587,1589574191445
Fix,GT,37.4166188,-122.082065,,0.0006300666,0.1,92.92575,1589574192445
Fix,GT,37.4166188,-122.082065,,0.0017803698,0.1,92.92578,1589574193445
Fix,GT,37.4166188,-122.082065,,0.0022360682,0.1,92.925354,1589574194445
Fix,GT,37.4166188,-122.082065,,0.002130894,0.1,92.92563,1589574195445
Fix,GT,37.4166188,-122.082065,,0.0015544757,0.1,92.92615,1589574196445
Fix,GT,37.4166188,-122.082065,,0.0011845423,0.1,92.926056,1589574197445
Fix,GT,37.4166188,-122.082065,,0.0017803698,0.1,92.92578,1589574198445
Fix,GT,37.4166188,-122.082065,,0.0012398453,0.1,92.92566,1589574199445
Fix,GT,37.4166188,-122.082065,,0.0009962228,0.1,92.92615,1589574200445
Fix,GT,37.4166188,-122.082065,,0.0016853696,0.1,92.92627,1589574201445
Fix,GT,37.4166188,-122.082065,,0.0011845423,0.1,92.92636,1589574202445
Fix,GT,37.4166188,-122.082065,,0.0012296714,0.1,92.92651,1589574203445
Fix,GT,37.4166188,-122.082065,,0.001,0.1,92.926025,1589574204445
Fix,GT,37.4166188,-122.082065,,0.0011845423,0.1,92.9256,1589574205445
Fix,GT,37.4166188,-122.082065,,0.0017803698,0.1,92.92569,1589574206445
Fix,GT,37.4166188,-122.082065,,0.002130894,0.1,92.92621,1589574207445
Fix,GT,37.4166188,-122.082065,,0.0021051741,0.1,92.92621,1589574208445
Fix,GT,37.4166188,-122.082065,,0.0022360682,0.1,92.92572,1589574209445
Fix,GT,37.4166188,-122.082065,,0.0022360678,0.1,92.924835,1589574210445
Fix,GT,37.4166188,-122.082065,,0.0016853696,0.1,92.92346,1589574211445
Fix,GT,37.4166188,-122.082065,,0.0011845423,0.1,92.92331,1589574212445
Fix,GT,37.4166188,-122.082065,,0.000784147,0.1,92.92432,1589574213445
Fix,GT,37.4166188,-122.082065,,0.001836944,0.1,92.92456,1589574214445
Fix,GT,37.4166188,-122.082065,,0.0041231057,0.1,92.92401,1589574215445
Fix,GT,37.4166188,-122.082065,,0.0036227347,0.1,92.923615,1589574216445
Fix,GT,37.4166188,-122.082065,,0.0026596496,0.1,92.924194,1589574217445
Fix,GT,37.4166188,-122.082065,,0.0022360678,0.1,92.92404,1589574218445
Fix,GT,37.4166188,-122.082065,,0.0016853696,0.1,92.92413,1589574219445
Fix,GT,37.4166188,-122.082065,,0.001,0.1,92.92374,1589574220445
Fix,GT,37.4166188,-122.082065,,0.0011845422,0.1,92.92352,1589574221445
Fix,GT,37.4166188,-122.082065,,0.0012296713,0.1,92.92355,1589574222445
Fix,GT,37.4166188,-122.082065,,0.0019633472,0.1,92.92438,1589574223445
Fix,GT,37.4166188,-122.082065,,0.0027496286,0.1,92.92468,1589574224445
Fix,GT,37.4166188,-122.082065,,0.0024999783,0.1,92.92389,1589574225445
Fix,GT,37.4166188,-122.082065,,0.0031746547,0.1,92.92386,1589574226445
Fix,GT,37.4166188,-122.082065,,0.003408062,0.1,92.92297,1589574227445
Fix,GT,37.4166188,-122.082065,,0.0035355033,0.1,92.92261,1589574228445
Fix,GT,37.4166188,-122.082065,,0.0031089515,0.1,92.922516,1589574229445
Fix,GT,37.4166188,-122.082065,,0.0015544757,0.1,92.92273,1589574230445
Fix,GT,37.4166188,-122.082065,,0.0015506983,0.1,92.92258,1589574231445
Fix,GT,37.4166188,-122.082065,,0.0031300448,0.1,92.92212,1589574232445
Fix,GT,37.4166188,-122.082065,,0.0039588017,0.1,92.92166,1589574233445
Fix,GT,37.4166188,-122.082065,,0.0029954133,0.1,92.921265,1589574234445
Fix,GT,37.4166188,-122.082065,,0.0026487168,0.1,92.9212,1589574235445
Fix,GT,37.4166188,-122.082065,,0.0026444546,0.1,92.921234,1589574236445
Fix,GT,37.4166188,-122.082065,,0.0015544757,0.1,92.9202,1589574237445
Fix,GT,37.4166188,-122.082065,,0.0011845422,0.1,92.91974,1589574238445
Fix,GT,37.4166188,-122.082065,,0.0014142136,0.1,92.920166,1589574239445
Fix,GT,37.4166188,-122.082065,,0.0016751956,0.1,92.9202,1589574240445
Fix,GT,37.4166188,-122.082065,,0.001739018,0.1,92.92035,1589574241445
Fix,GT,37.4166188,-122.082065,,0.0021207198,0.1,92.92035,1589574242445
Fix,GT,37.4166188,-122.082065,,0.003,0.1,92.91968,1589574243445
Fix,GT,37.4166188,-122.082065,,0.0030722986,0.1,92.91968,1589574244445
Fix,GT,37.4166188,-122.082065,,0.0026444548,0.1,92.92023,1589574245445
Fix,GT,37.4166188,-122.082065,,0.001739018,0.1,92.92029,1589574246445
Fix,GT,37.4166188,-122.082065,,0.00078414707,0.1,92.920135,1589574247445
Fix,GT,37.4166188,-122.082065,,0.00044552426,0.1,92.91992,1589574248445
Fix,GT,37.4166188,-122.082065,,0.001,0.1,92.92023,1589574249445
Fix,GT,37.4166188,-122.082065,,0.0015506983,0.1,92.91974,1589574250445
Fix,GT,37.4166188,-122.082065,,0.0026487168,0.1,92.91882,1589574251445
Fix,GT,37.4166188,-122.082065,,0.004571149,0.1,92.91882,1589574252445
Fix,GT,37.4166188,-122.082065,,0.004503035,0.1,92.91937,1589574253445
Fix,GT,37.4166188,-122.082065,,0.001869912,0.1,92.916595,1589574254445
Fix,GT,37.4166188,-122.082065,,0.0026210907,0.1,92.9144,1589574255445
Fix,GT,37.4166188,-122.082065,,0.004278607,0.1,92.91614,1589574256445
Fix,GT,37.4166188,-122.082065,,0.0029252153,0.1,92.917175,1589574257445
Fix,GT,37.4166188,-122.082065,,0.0015506983,0.1,92.91687,1589574258445
Fix,GT,37.4166188,-122.082065,,0.0032322905,0.1,92.91693,1589574259445
Fix,GT,37.4166188,-122.082065,,0.0040860516,0.1,92.91693,1589574260445
Fix,GT,37.4166188,-122.082065,,0.003259324,0.1,92.91681,1589574261445
Fix,GT,37.4166188,-122.082065,,0.0024593428,0.1,92.9173,1589574262445
Fix,GT,37.4166188,-122.082065,,0.0015544759,0.1,92.91748,1589574263445
Fix,GT,37.4166188,-122.082065,,0.0015506983,0.1,92.91696,1589574264445
Fix,GT,37.4166188,-122.082065,,0.001869912,0.1,92.916565,1589574265445
Fix,GT,37.4166188,-122.082065,,0.0017803697,0.1,92.91638,1589574266445
Fix,GT,37.4166188,-122.082065,,0.002236068,0.1,92.9162,1589574267445
Fix,GT,37.4166188,-122.082065,,0.002846206,0.1,92.91583,1589574268445
Fix,GT,37.4166188,-122.082065,,0.0033357637,0.1,92.916016,1589574269445
Fix,GT,37.4166188,-122.082065,,0.0030722986,0.1,92.916626,1589574270445
Fix,GT,37.4166188,-122.082065,,0.0030135391,0.1,92.91681,1589574271445
Fix,GT,37.4166188,-122.082065,,0.0021983609,0.1,92.91644,1589574272445
Fix,GT,37.4166188,-122.082065,,0.0014142136,0.1,92.91614,1589574273445
Fix,GT,37.4166188,-122.082065,,0.0012296714,0.1,92.91824,1589574274445
Fix,GT,37.4166188,-122.082065,,0.0014455244,0.1,92.920166,1589574275445
Fix,GT,37.4166188,-122.082065,,0.0051186695,0.1,92.918304,1589574276445
Fix,GT,37.4166188,-122.082065,,0.0072620185,0.1,92.91815,1589574277445
Fix,GT,37.4166188,-122.082065,,0.0042361543,0.1,92.91855,1589574278445
Fix,GT,37.4166188,-122.082065,,0.0037458513,0.1,92.91708,1589574279445
Fix,GT,37.4166188,-122.082065,,0.0038885623,0.1,92.9176,1589574280445
Fix,GT,37.4166188,-122.082065,,0.0023834729,0.1,92.91791,1589574281445
Fix,GT,37.4166188,-122.082065,,0.0026743463,0.1,92.91632,1589574282445
Fix,GT,37.4166188,-122.082065,,0.003689014,0.1,92.91528,1589574283445
Fix,GT,37.4166188,-122.082065,,0.0025544758,0.1,92.914856,1589574284445
Fix,GT,37.4166188,-122.082065,,0.0017390181,0.1,92.914185,1589574285445
Fix,GT,37.4166188,-122.082065,,0.0012296714,0.1,92.91345,1589574286445
Fix,GT,37.4166188,-122.082065,,0.0014455244,0.1,92.913086,1589574287445
Fix,GT,37.4166188,-122.082065,,0.001739018,0.1,92.91284,1589574288445
Fix,GT,37.4166188,-122.082065,,0.0017803697,0.1,92.912964,1589574289445
Fix,GT,37.4166188,-122.082065,,0.002130894,0.1,92.91281,1589574290445
Fix,GT,37.4166188,-122.082065,,0.0017390181,0.1,92.912964,1589574291445
Fix,GT,37.4166188,-122.082065,,0.0014142136,0.1,92.912964,1589574292445
Fix,GT,37.4166188,-122.082065,,0.0021207198,0.1,92.91327,1589574293445
Fix,GT,37.4166188,-122.082065,,0.0025544758,0.1,92.9133,1589574294445
Fix,GT,37.4166188,-122.082065,,0.0024455243,0.1,92.912964,1589574295445
Fix,GT,37.4166188,-122.082065,,0.0036558723,0.1,92.91159,1589574296445
Fix,GT,37.4166188,-122.082065,,0.0034759133,0.1,92.911865,1589574297445
Fix,GT,37.4166188,-122.082065,,0.0016853698,0.1,92.91434,1589574298445
Fix,GT,37.4166188,-122.082065,,0.0014455244,0.1,92.91449,1589574299445
Fix,GT,37.4166188,-122.082065,,0.001739018,0.1,92.91339,1589574300445
Fix,GT,37.4166188,-122.082065,,0.0014142136,0.1,92.913055,1589574301445
Fix,GT,37.4166188,-122.082065,,0.0012296713,0.1,92.913574,1589574302445
Fix,GT,37.4166188,-122.082065,,0.0015506984,0.1,92.91354,1589574303445
Fix,GT,37.4166188,-122.082065,,0.0018699119,0.1,92.912994,1589574304445
Fix,GT,37.4166188,-122.082065,,0.00078414707,0.1,92.91235,1589574305445
Fix,GT,37.4166188,-122.082065,,0.0004455243,0.1,92.91147,1589574306445
Fix,GT,37.4166188,-122.082065,,0.0019633472,0.1,92.90985,1589574307445
Fix,GT,37.4166188,-122.082065,,0.0017534061,0.1,92.910614,1589574308445
Fix,GT,37.4166188,-122.082065,,0.00311867,0.1,92.91348,1589574309445
Fix,GT,37.4166188,-122.082065,,0.0043268544,0.1,92.91321,1589574310445
Fix,GT,37.4166188,-122.082065,,0.0011845422,0.1,92.91229,1589574311445
Fix,GT,37.4166188,-122.082065,,0.0017803697,0.1,92.911865,1589574312445
Fix,GT,37.4166188,-122.082065,,0.0025764182,0.1,92.91135,1589574313445
Fix,GT,37.4166188,-122.082065,,0.0034455243,0.1,92.91205,1589574314445
Fix,GT,37.4166188,-122.082065,,0.0036267745,0.1,92.9126,1589574315445
Fix,GT,37.4166188,-122.082065,,0.0023834726,0.1,92.91281,1589574316445
Fix,GT,37.4166188,-122.082065,,0.0026210907,0.1,92.91144,1589574317445
Fix,GT,37.4166188,-122.082065,,0.003546295,0.1,92.91229,1589574318445
Fix,GT,37.4166188,-122.0820651,,0.0025645168,0.1,92.916565,1589574319445
Fix,GT,37.4166188,-122.0820651,,0.0012398454,0.1,92.91617,1589574320445
Fix,GT,37.4166188,-122.082065,,0.0038325447,0.1,92.9133,1589574321445
Fix,GT,37.4166188,-122.082065,,0.0053998465,0.1,92.90936,1589574322445
Fix,GT,37.4166188,-122.082065,,0.0012296713,0.1,92.90692,1589574323445
Fix,GT,37.4166188,-122.0820649,,0.0011845422,0.1,92.9082,1589574324445
Fix,GT,37.4166188,-122.0820649,,0.003055884,0.1,92.910736,1589574325445
Fix,GT,37.4166188,-122.0820649,,0.003718331,0.1,92.91391,1589574326445
Fix,GT,37.4166188,-122.0820649,,0.0031013968,0.1,92.91345,1589574327445
Fix,GT,37.4166187,-122.0820649,,0.0043166345,0.1,92.912415,1589574328445
Fix,GT,37.4166187,-122.0820649,,0.0041231057,0.1,92.9115,1589574329445
Fix,GT,37.4166187,-122.0820649,,0.0029162285,0.1,92.911316,1589574330445
Fix,GT,37.4166187,-122.0820649,,0.0012296713,0.1,92.91104,1589574331445
Fix,GT,37.4166187,-122.0820649,,0.0005544757,0.1,92.91095,1589574332445
Fix,GT,37.4166187,-122.0820649,,0.0,0.1,92.91086,1589574333445
Fix,GT,37.4166187,-122.0820649,,0.0009962226,0.1,92.91034,1589574334445
Fix,GT,37.4166187,-122.0820649,,0.0018699119,0.1,92.91116,1589574335445
Fix,GT,37.4166187,-122.0820649,,0.0016751956,0.1,92.91214,1589574336445
Fix,GT,37.4166187,-122.0820649,,0.0025178231,0.1,92.91153,1589574337445
Fix,GT,37.4166187,-122.0820649,,0.0026444546,0.1,92.91028,1589574338445
Fix,GT,37.4166187,-122.0820649,,0.0015544759,0.1,92.90985,1589574339445
Fix,GT,37.4166187,-122.0820649,,0.0014455244,0.1,92.91016,1589574340445
Fix,GT,37.4166187,-122.0820649,,0.002,0.1,92.91034,1589574341445
Fix,GT,37.4166187,-122.0820649,,0.0021051741,0.1,92.909424,1589574342445
Fix,GT,37.4166187,-122.0820649,,0.0026487168,0.1,92.90906,1589574343445
Fix,GT,37.4166187,-122.0820649,,0.0026444546,0.1,92.90909,1589574344445
Fix,GT,37.4166187,-122.0820649,,0.0015544759,0.1,92.90875,1589574345445
Fix,GT,37.4166187,-122.0820649,,0.001,0.1,92.908295,1589574346445
Fix,GT,37.4166187,-122.0820649,,0.0015506983,0.1,92.908264,1589574347445
Fix,GT,37.4166187,-122.0820649,,0.0012398455,0.1,92.9082,1589574348445
Fix,GT,37.4166187,-122.0820649,,0.0009962225,0.1,92.90729,1589574349445
Fix,GT,37.4166187,-122.0820649,,0.0024999783,0.1,92.90695,1589574350445
Fix,GT,37.4166187,-122.0820649,,0.0020138186,0.1,92.90799,1589574351445
Fix,GT,37.4166187,-122.0820649,,0.0005544758,0.1,92.907715,1589574352445
Fix,GT,37.4166187,-122.0820649,,0.0009962225,0.1,92.907715,1589574353445
Fix,GT,37.4166187,-122.0820649,,0.0024999783,0.1,92.90741,1589574354445
Fix,GT,37.4166187,-122.0820649,,0.0031746547,0.1,92.90723,1589574355445
Fix,GT,37.4166187,-122.0820649,,0.0029954135,0.1,92.90561,1589574356445
Fix,GT,37.4166187,-122.0820649,,0.003076789,0.1,92.9021,1589574357445
Fix,GT,37.4166187,-122.0820649,,0.003546295,0.1,92.901276,1589574358445
Fix,GT,37.4166187,-122.0820649,,0.0020138186,0.1,92.9017,1589574359445
Fix,GT,37.4166187,-122.0820649,,0.001,0.1,92.90204,1589574360445
Fix,GT,37.4166187,-122.0820649,,0.001,0.1,92.90332,1589574361445
Fix,GT,37.4166187,-122.0820649,,0.0023365729,0.1,92.90485,1589574362445
Fix,GT,37.4166187,-122.0820649,,0.0036267745,0.1,92.90698,1589574363445
Fix,GT,37.4166187,-122.0820649,,0.0054272935,0.1,92.90558,1589574364445
Fix,GT,37.4166187,-122.0820649,,0.0064625237,0.1,92.902466,1589574365445
Fix,GT,37.4166187,-122.0820649,,0.0047516627,0.1,92.90173,1589574366445
Fix,GT,37.4166187,-122.0820649,,0.0043948144,0.1,92.90033,1589574367445
Fix,GT,37.4166187,-122.0820649,,0.0023834729,0.1,92.899506,1589574368445
Fix,GT,37.4166187,-122.0820649,,0.0014142136,0.1,92.89905,1589574369445
Fix,GT,37.4166187,-122.0820649,,0.0017803697,0.1,92.90155,1589574370445
Fix,GT,37.4166187,-122.0820649,,0.0016853698,0.1,92.90091,1589574371445
Fix,GT,37.4166187,-122.0820649,,0.0011845422,0.1,92.90149,1589574372445
Fix,GT,37.4166187,-122.0820649,,0.0007841472,0.1,92.902435,1589574373445
Fix,GT,37.4166187,-122.0820649,,0.00044552423,0.1,92.90274,1589574374445
Fix,GT,37.4166187,-122.0820649,,0.0015506982,0.1,92.902954,1589574375445
Fix,GT,37.4166187,-122.0820649,,0.0012398455,0.1,92.90216,1589574376445
Fix,GT,37.4166187,-122.0820649,,0.0006300663,0.1,92.90042,1589574377445
Fix,GT,37.4166187,-122.0820649,,0.0012296714,0.1,92.9003,1589574378445
Fix,GT,37.4166187,-122.0820649,,0.0015506982,0.1,92.901855,1589574379445
Fix,GT,37.4166187,-122.0820649,,0.0018699118,0.1,92.90265,1589574380445
Fix,GT,37.4166187,-122.0820649,,0.0020442798,0.1,92.903046,1589574381445
Fix,GT,37.4166187,-122.0820649,,0.0029771654,0.1,92.90515,1589574382445
Fix,GT,37.4166187,-122.0820649,,0.0031622776,0.1,92.90576,1589574383445
Fix,GT,37.4166187,-122.0820649,,0.0042736717,0.1,92.9021,1589574384445
Fix,GT,37.4166187,-122.0820649,,0.00553581,0.1,92.89148,1589574385445
Fix,GT,37.4166187,-122.0820649,,0.0039821663,0.1,92.886475,1589574386445
Fix,GT,37.4166187,-122.0820649,,0.001869912,0.1,92.897064,1589574387445
Fix,GT,37.4166187,-122.0820649,,0.0021930183,0.1,92.89871,1589574388445
Fix,GT,37.4166187,-122.0820649,,0.0033597667,0.1,92.898926,1589574389445
Fix,GT,37.4166187,-122.0820649,,0.0055911215,0.1,92.90732,1589574390445
Fix,GT,37.4166187,-122.0820649,,0.009206314,0.1,92.91461,1589574391445
Fix,GT,37.4166187,-122.082065,,0.008567304,0.1,92.90881,1589574392445
Fix,GT,37.4166187,-122.082065,,0.0039569214,0.1,92.90451,1589574393445
Fix,GT,37.4166186,-122.082065,,0.0030558836,0.1,92.90259,1589574394445
Fix,GT,37.4166186,-122.082065,,0.0041638557,0.1,92.903564,1589574395445
Fix,GT,37.4166186,-122.082065,,0.0021089518,0.1,92.90344,1589574396445
Fix,GT,37.4166186,-122.082065,,0.0011845422,0.1,92.90094,1589574397445
Fix,GT,37.4166186,-122.082065,,0.0014142136,0.1,92.90173,1589574398445
Fix,GT,37.4166186,-122.082065,,0.0021207198,0.1,92.90155,1589574399445
Fix,GT,37.4166186,-122.082065,,0.0035003708,0.1,92.90137,1589574400445
Fix,GT,37.4166186,-122.082065,,0.002916229,0.1,92.90137,1589574401445
Fix,GT,37.4166186,-122.082065,,0.0012296715,0.1,92.90027,1589574402445
Fix,GT,37.4166186,-122.082065,,0.001,0.1,92.90045,1589574403445
Fix,GT,37.4166186,-122.082065,,0.001,0.1,92.90021,1589574404445
Fix,GT,37.4166186,-122.082065,,0.002160836,0.1,92.89975,1589574405445
Fix,GT,37.4166186,-122.082065,,0.0034080623,0.1,92.89978,1589574406445
Fix,GT,37.4166186,-122.082065,,0.0023834729,0.1,92.89929,1589574407445
Fix,GT,37.4166186,-122.082065,,0.0020442798,0.1,92.90024,1589574408445
Fix,GT,37.4166186,-122.082065,,0.002459343,0.1,92.90085,1589574409445
Fix,GT,37.4166186,-122.082065,,0.0021051741,0.1,92.900085,1589574410445
Fix,GT,37.4166186,-122.082065,,0.00168537,0.1,92.899994,1589574411445
Fix,GT,37.4166186,-122.082065,,0.0015506981,0.1,92.89923,1589574412445
Fix,GT,37.4166186,-122.082065,,0.002236068,0.1,92.89914,1589574413445
Fix,GT,37.4166186,-122.082065,,0.0026487168,0.1,92.89917,1589574414445
Fix,GT,37.4166186,-122.082065,,0.0023834729,0.1,92.89896,1589574415445
Fix,GT,37.4166186,-122.082065,,0.0021207198,0.1,92.89929,1589574416445
Fix,GT,37.4166186,-122.082065,,0.00292356,0.1,92.89963,1589574417445
Fix,GT,37.4166186,-122.082065,,0.0034052376,0.1,92.899536,1589574418445
Fix,GT,37.4166186,-122.082065,,0.003177211,0.1,92.89935,1589574419445
Fix,GT,37.4166186,-122.082065,,0.0021051741,0.1,92.89914,1589574420445
Fix,GT,37.4166186,-122.082065,,0.002130894,0.1,92.898926,1589574421445
Fix,GT,37.4166186,-122.082065,,0.002,0.1,92.89905,1589574422445
Fix,GT,37.4166186,-122.082065,,0.0025178227,0.1,92.898865,1589574423445
Fix,GT,37.4166186,-122.082065,,0.0021989308,0.1,92.89838,1589574424445
Fix,GT,37.4166186,-122.082065,,0.0018910482,0.1,92.89813,1589574425445
Fix,GT,37.4166186,-122.082065,,0.003,0.1,92.89813,1589574426445
Fix,GT,37.4166186,-122.082065,,0.0030722986,0.1,92.89819,1589574427445
Fix,GT,37.4166186,-122.082065,,0.0031622774,0.1,92.8978,1589574428445
Fix,GT,37.4166186,-122.082065,,0.0021989308,0.1,92.8974,1589574429445
Fix,GT,37.4166186,-122.082065,,0.0015506981,0.1,92.897644,1589574430445
Fix,GT,37.4166186,-122.082065,,0.00323229,0.1,92.89761,1589574431445
Fix,GT,37.4166186,-122.082065,,0.0038885626,0.1,92.897,1589574432445
Fix,GT,37.4166186,-122.082065,,0.0021989308,0.1,92.896484,1589574433445
Fix,GT,37.4166186,-122.082065,,0.001,0.1,92.89661,1589574434445
Fix,GT,37.4166186,-122.082065,,0.0015506981,0.1,92.897095,1589574435445
Fix,GT,37.4166186,-122.082065,,0.002236068,0.1,92.897156,1589574436445
Fix,GT,37.4166186,-122.082065,,0.0018699121,0.1,92.89703,1589574437445
Fix,GT,37.4166186,-122.082065,,0.002193018,0.1,92.897064,1589574438445
Fix,GT,37.4166186,-122.082065,,0.002198931,0.1,92.89679,1589574439445
Fix,GT,37.4166186,-122.082065,,0.0011845422,0.1,92.89642,1589574440445
Fix,GT,37.4166186,-122.082065,,0.0017803694,0.1,92.89636,1589574441445
Fix,GT,37.4166186,-122.082065,,0.0018699121,0.1,92.896454,1589574442445
Fix,GT,37.4166186,-122.082065,,0.0016751955,0.1,92.89639,1589574443445
Fix,GT,37.4166186,-122.082065,,0.0015544761,0.1,92.89609,1589574444445
Fix,GT,37.4166186,-122.082065,,0.0011845422,0.1,92.895874,1589574445445
Fix,GT,37.4166186,-122.082065,,0.0014142136,0.1,92.89581,1589574446445
Fix,GT,37.4166186,-122.082065,,0.0017803696,0.1,92.89551,1589574447445
Fix,GT,37.4166186,-122.082065,,0.0018699123,0.1,92.89484,1589574448445
Fix,GT,37.4166186,-122.082065,,0.0014142136,0.1,92.89459,1589574449445
Fix,GT,37.4166186,-122.082065,,0.0014142136,0.1,92.89465,1589574450445
Fix,GT,37.4166186,-122.082065,,0.0012296715,0.1,92.89441,1589574451445
Fix,GT,37.4166186,-122.082065,,0.001891048,0.1,92.894775,1589574452445
Fix,GT,37.4166186,-122.082065,,0.0030722986,0.1,92.89499,1589574453445
Fix,GT,37.4166186,-122.082065,,0.0027496289,0.1,92.89496,1589574454445
Fix,GT,37.4166186,-122.082065,,0.0018699121,0.1,92.89484,1589574455445
Fix,GT,37.4166186,-122.082065,,0.0014142136,0.1,92.89462,1589574456445
Fix,GT,37.4166186,-122.082065,,0.0012296715,0.1,92.89453,1589574457445
Fix,GT,37.4166186,-122.082065,,0.0011845421,0.1,92.89459,1589574458445
Fix,GT,37.4166186,-122.082065,,0.0020442796,0.1,92.89465,1589574459445
Fix,GT,37.4166186,-122.082065,,0.0031746547,0.1,92.89459,1589574460445
Fix,GT,37.4166186,-122.082065,,0.0034080623,0.1,92.894775,1589574461445
Fix,GT,37.4166186,-122.082065,,0.002644455,0.1,92.894714,1589574462445
Fix,GT,37.4166186,-122.082065,,0.0021051741,0.1,92.894226,1589574463445
Fix,GT,37.4166186,-122.082065,,0.002130894,0.1,92.89426,1589574464445
Fix,GT,37.4166186,-122.082065,,0.0023690842,0.1,92.89377,1589574465445
Fix,GT,37.4166186,-122.082065,,0.0025645168,0.1,92.8934,1589574466445
Fix,GT,37.4166186,-122.082065,,0.002130894,0.1,92.89404,1589574467445
Fix,GT,37.4166186,-122.082065,,0.0021051741,0.1,92.89487,1589574468445
Fix,GT,37.4166186,-122.0820651,,0.0018699123,0.1,92.89505,1589574469445
Fix,GT,37.4166186,-122.0820651,,0.0012296715,0.1,92.894714,1589574470445
Fix,GT,37.4166186,-122.0820651,,0.0015506978,0.1,92.89441,1589574471445
Fix,GT,37.4166186,-122.082065,,0.05133702,0.1,92.89487,1589574472445
Fix,GT,37.4166185,-122.0820636,,0.27234328,0.1,92.75781,1589574473445
Fix,GT,37.4166184,-122.0820587,,0.46201324,0.1,92.25415,1589574474445
Fix,GT,37.4166184,-122.0820542,,0.25196418,0.1,91.819336,1589574475445
Fix,GT,37.4166183,-122.0820537,,0.0032179044,0.1,91.7926,1589574476445
Fix,GT,37.4166183,-122.0820537,,0.00055447617,0.1,91.79236,1589574477445
Fix,GT,37.4166183,-122.0820537,,0.00063006586,0.1,91.79166,1589574478445
Fix,GT,37.4166184,-122.0820537,,0.0012296715,0.1,91.791534,1589574479445
Fix,GT,37.4166184,-122.0820537,,0.00055447617,0.1,91.790924,1589574480445
Fix,GT,37.4166184,-122.0820537,,0.0,0.1,91.79059,1589574481445
Fix,GT,37.4166184,-122.0820537,,0.00063006586,0.1,91.79077,1589574482445
Fix,GT,37.4166184,-122.0820537,,0.0016751954,0.1,91.79025,1589574483445
Fix,GT,37.4166184,-122.0820537,,0.0015544762,0.1,91.79013,1589574484445
Fix,GT,37.4166184,-122.0820537,,0.001184542,0.1,91.789825,1589574485445
Fix,GT,37.4166184,-122.0820535,,0.07119947,0.1,91.78369,1589574486445
Fix,GT,37.4166185,-122.08205,,0.755042,0.1,91.298004,1589574487445
Fix,GT,37.4166191,-122.0820328,,2.5082889,0.1,88.76715,1589574488445
Fix,GT,37.4166207,-122.0819938,,4.4305873,0.1,86.486725,1589574489445
Fix,GT,37.4166229,-122.0819353,,5.9079037,0.1,86.36966,1589574490445
Fix,GT,37.4166257,-122.0818607,,7.2783084,0.1,86.18411,1589574491445
Fix,GT,37.4166282,-122.0817719,,8.415937,0.1,87.07364,1589574492445
Fix,GT,37.4166288,-122.0816712,,9.388592,0.1,88.851654,1589574493445
Fix,GT,37.4166268,-122.0815596,,10.355209,0.1,90.45822,1589574494445
Fix,GT,37.4166227,-122.0814368,,11.397598,0.1,91.47443,1589574495445
Fix,GT,37.4166163,-122.0813031,,12.235016,0.1,92.47827,1589574496445
Fix,GT,37.4166078,-122.0811626,,12.602385,0.1,93.22882,1589574497445
Fix,GT,37.4165985,-122.0810192,,12.867484,0.1,93.32245,1589574498445
Fix,GT,37.4165896,-122.0808724,,13.1915045,0.1,92.95831,1589574499445
Fix,GT,37.4165808,-122.0807219,,13.515022,0.1,92.83789,1589574500445
Fix,GT,37.4165718,-122.080568,,13.774807,0.1,92.876465,1589574501445
Fix,GT,37.4165631,-122.0804115,,13.948257,0.1,92.559235,1589574502445
Fix,GT,37.4165548,-122.0802541,,13.937084,0.1,92.44202,1589574503445
Fix,GT,37.4165462,-122.0800982,,13.666863,0.1,92.756775,1589574504445
Fix,GT,37.4165371,-122.0799476,,13.021857,0.1,93.25641,1589574505445
Fix,GT,37.4165276,-122.079805,,12.331705,0.1,93.69147,1589574506445
Fix,GT,37.4165177,-122.0796681,,11.993114,0.1,94.0459,1589574507445
Fix,GT,37.4165076,-122.0795359,,11.4444065,0.1,94.33154,1589574508445
Fix,GT,37.4164978,-122.0794112,,10.805789,0.1,94.385895,1589574509445
Fix,GT,37.4164885,-122.0792919,,10.597126,0.1,94.243225,1589574510445
Fix,GT,37.4164793,-122.0791708,,11.037254,0.1,94.16077,1589574511445
Fix,GT,37.4164698,-122.0790439,,11.50075,0.1,93.793365,1589574512445
Fix,GT,37.4164614,-122.0789158,,11.169938,0.1,93.16226,1589574513445
Fix,GT,37.4164542,-122.0787947,,10.322634,0.1,92.7449,1589574514445
Fix,GT,37.4164479,-122.0786829,,9.574808,0.1,92.8703,1589574515445
Fix,GT,37.4164412,-122.0785779,,9.037104,0.1,93.53879,1589574516445
Fix,GT,37.4164338,-122.0784804,,8.124147,0.1,94.3681,1589574517445
Fix,GT,37.4164264,-122.0783978,,6.4741354,0.1,95.47015,1589574518445
Fix,GT,37.4164197,-122.0783366,,4.4075794,0.1,96.81445,1589574519445
Fix,GT,37.416415,-122.0783004,,2.0251405,0.1,97.715454,1589574520445
Fix,GT,37.4164135,-122.0782887,,0.2889304,0.1,97.941376,1589574521445
Fix,GT,37.4164135,-122.0782885,,0.008470968,0.1,97.96173,1589574522445
Fix,GT,37.4164135,-122.0782885,,0.0046093804,0.1,97.963776,1589574523445
Fix,GT,37.4164135,-122.0782885,,0.003214127,0.1,97.963135,1589574524445
